[
  {
    "candidate_id": "B0KD1CIP06",
    "poi_name": "肯悦咖啡金驹家园店",
    "category": "餐饮服务;咖啡厅;咖啡厅",
    "amap_keywords": "咖啡|餐饮|便利店|书店|亲子|文创|茶饮",
    "longitude": "116.567201",
    "latitude": "39.960368",
    "rating": "",
    "cost_yuan": "",
    "distance_m": "1270",
    "boundary_filter_status": "amap_around_current_context",
    "supply_use_status": "needs_review_context_poi",
    "output_status": "needs_review"
  },
  {
    "candidate_id": "B0L6GC6Q2F",
    "poi_name": "库迪咖啡(朝新华莱士店)",
    "category": "餐饮服务;咖啡厅;咖啡厅",
    "amap_keywords": "咖啡|餐饮|便利店|书店|亲子|文创|茶饮",
    "longitude": "116.557462",
    "latitude": "39.951340",
    "rating": "",
    "cost_yuan": "",
    "distance_m": "1412",
    "boundary_filter_status": "amap_around_current_context",
    "supply_use_status": "needs_review_context_poi",
    "output_status": "needs_review"
  },
  {
    "candidate_id": "B0IRP78DJ6",
    "poi_name": "魅 KTV·AI 辅唱(东坝店)",
    "category": "体育休闲服务;娱乐场所;KTV",
    "amap_keywords": "咖啡|餐饮|便利店|书店|亲子|文创|茶饮",
    "longitude": "116.557403",
    "latitude": "39.952493",
    "rating": "",
    "cost_yuan": "",
    "distance_m": "1434",
    "boundary_filter_status": "amap_around_current_context",
    "supply_use_status": "needs_review_context_poi",
    "output_status": "needs_review"
  },
  {
    "candidate_id": "B0KRSRK6HJ",
    "poi_name": "杭州小笼包(刀削面)",
    "category": "餐饮服务;中餐厅;中餐厅",
    "amap_keywords": "咖啡|餐饮|便利店|书店|亲子|文创|茶饮",
    "longitude": "116.568994",
    "latitude": "39.962554",
    "rating": "",
    "cost_yuan": "",
    "distance_m": "1439",
    "boundary_filter_status": "amap_around_current_context",
    "supply_use_status": "needs_review_context_poi",
    "output_status": "needs_review"
  },
  {
    "candidate_id": "B0K1HUTN33",
    "poi_name": "茶胡苑茶艺棋牌",
    "category": "体育休闲服务;娱乐场所;棋牌室",
    "amap_keywords": "咖啡|餐饮|便利店|书店|亲子|文创|茶饮",
    "longitude": "116.556290",
    "latitude": "39.952706",
    "rating": "",
    "cost_yuan": "",
    "distance_m": "1532",
    "boundary_filter_status": "amap_around_current_context",
    "supply_use_status": "needs_review_context_poi",
    "output_status": "needs_review"
  },
  {
    "candidate_id": "B0FFKW01AD",
    "poi_name": "百年义利(东泽园店)",
    "category": "餐饮服务;糕饼店;糕饼店",
    "amap_keywords": "咖啡|餐饮|便利店|书店|亲子|文创|茶饮",
    "longitude": "116.558367",
    "latitude": "39.960461",
    "rating": "",
    "cost_yuan": "",
    "distance_m": "1753",
    "boundary_filter_status": "amap_around_current_context",
    "supply_use_status": "needs_review_context_poi",
    "output_status": "needs_review"
  },
  {
    "candidate_id": "B0K6757S1X",
    "poi_name": "RE5INA五魁咖啡·精酿·烤串",
    "category": "餐饮服务;咖啡厅;咖啡厅",
    "amap_keywords": "咖啡|餐饮|便利店|书店|亲子|文创|茶饮",
    "longitude": "116.561543",
    "latitude": "39.965009",
    "rating": "",
    "cost_yuan": "",
    "distance_m": "1959",
    "boundary_filter_status": "amap_around_current_context",
    "supply_use_status": "needs_review_context_poi",
    "output_status": "needs_review"
  },
  {
    "candidate_id": "B0J1CUEUOT",
    "poi_name": "知知岛书店(金隅嘉品Mall店)",
    "category": "餐饮服务;咖啡厅;咖啡厅",
    "amap_keywords": "咖啡|餐饮|便利店|书店|亲子|文创|茶饮",
    "longitude": "116.548631",
    "latitude": "39.951099",
    "rating": "",
    "cost_yuan": "",
    "distance_m": "2162",
    "boundary_filter_status": "amap_around_current_context",
    "supply_use_status": "needs_review_context_poi",
    "output_status": "needs_review"
  },
  {
    "candidate_id": "B0I0N77UJL",
    "poi_name": "棒约翰比萨(金隅嘉品Mall店)",
    "category": "餐饮服务;快餐厅;快餐厅",
    "amap_keywords": "咖啡|餐饮|便利店|书店|亲子|文创|茶饮",
    "longitude": "116.548238",
    "latitude": "39.951210",
    "rating": "",
    "cost_yuan": "",
    "distance_m": "2196",
    "boundary_filter_status": "amap_around_current_context",
    "supply_use_status": "needs_review_context_poi",
    "output_status": "needs_review"
  },
  {
    "candidate_id": "B0FFL7BNYR",
    "poi_name": "瑞幸咖啡(金隅嘉品MALL店)",
    "category": "餐饮服务;咖啡厅;咖啡厅",
    "amap_keywords": "咖啡|餐饮|便利店|书店|亲子|文创|茶饮",
    "longitude": "116.548177",
    "latitude": "39.951313",
    "rating": "",
    "cost_yuan": "",
    "distance_m": "2202",
    "boundary_filter_status": "amap_around_current_context",
    "supply_use_status": "needs_review_context_poi",
    "output_status": "needs_review"
  },
  {
    "candidate_id": "B0G1XAGKNS",
    "poi_name": "本宫的茶(金隅嘉品Mall店)",
    "category": "餐饮服务;冷饮店;冷饮店",
    "amap_keywords": "咖啡|餐饮|便利店|书店|亲子|文创|茶饮",
    "longitude": "116.548025",
    "latitude": "39.951525",
    "rating": "",
    "cost_yuan": "",
    "distance_m": "2216",
    "boundary_filter_status": "amap_around_current_context",
    "supply_use_status": "needs_review_context_poi",
    "output_status": "needs_review"
  },
  {
    "candidate_id": "B0J6PU3RGA",
    "poi_name": "Tims天好咖啡(东坝金隅嘉品捷枫店)",
    "category": "餐饮服务;咖啡厅;咖啡厅",
    "amap_keywords": "咖啡|餐饮|便利店|书店|亲子|文创|茶饮",
    "longitude": "116.547958",
    "latitude": "39.951475",
    "rating": "",
    "cost_yuan": "",
    "distance_m": "2222",
    "boundary_filter_status": "amap_around_current_context",
    "supply_use_status": "needs_review_context_poi",
    "output_status": "needs_review"
  },
  {
    "candidate_id": "B0JB6SHURZ",
    "poi_name": "煲仔皇腊味煲仔饭(金隅嘉品Mall店)",
    "category": "餐饮服务;中餐厅;中餐厅",
    "amap_keywords": "咖啡|餐饮|便利店|书店|亲子|文创|茶饮",
    "longitude": "116.547919",
    "latitude": "39.951265",
    "rating": "",
    "cost_yuan": "",
    "distance_m": "2224",
    "boundary_filter_status": "amap_around_current_context",
    "supply_use_status": "needs_review_context_poi",
    "output_status": "needs_review"
  },
  {
    "candidate_id": "B0FFG75CCY",
    "poi_name": "星巴克(金隅嘉品Mall店)",
    "category": "餐饮服务;咖啡厅;星巴克咖啡",
    "amap_keywords": "咖啡|餐饮|便利店|书店|亲子|文创|茶饮",
    "longitude": "116.547710",
    "latitude": "39.951408",
    "rating": "",
    "cost_yuan": "",
    "distance_m": "2242",
    "boundary_filter_status": "amap_around_current_context",
    "supply_use_status": "needs_review_context_poi",
    "output_status": "needs_review"
  },
  {
    "candidate_id": "B0J2S6DL0V",
    "poi_name": "春莱·老挝冰咖啡·泰式奶茶(东坝万达店)",
    "category": "餐饮服务;冷饮店;冷饮店",
    "amap_keywords": "咖啡|餐饮|便利店|书店|亲子|文创|茶饮",
    "longitude": "116.549134",
    "latitude": "39.961854",
    "rating": "",
    "cost_yuan": "",
    "distance_m": "2483",
    "boundary_filter_status": "amap_around_current_context",
    "supply_use_status": "needs_review_context_poi",
    "output_status": "needs_review"
  },
  {
    "candidate_id": "B0J2S6E0HQ",
    "poi_name": "秦炉烤肉(东坝万达广场)",
    "category": "餐饮服务;中餐厅;中餐厅",
    "amap_keywords": "咖啡|餐饮|便利店|书店|亲子|文创|茶饮",
    "longitude": "116.549167",
    "latitude": "39.962133",
    "rating": "",
    "cost_yuan": "",
    "distance_m": "2497",
    "boundary_filter_status": "amap_around_current_context",
    "supply_use_status": "needs_review_context_poi",
    "output_status": "needs_review"
  },
  {
    "candidate_id": "B0L0HSPP67",
    "poi_name": "库迪咖啡(东坝万达广场F5店)",
    "category": "餐饮服务;咖啡厅;咖啡厅",
    "amap_keywords": "咖啡|餐饮|便利店|书店|亲子|文创|茶饮",
    "longitude": "116.548934",
    "latitude": "39.962194",
    "rating": "",
    "cost_yuan": "",
    "distance_m": "2517",
    "boundary_filter_status": "amap_around_current_context",
    "supply_use_status": "needs_review_context_poi",
    "output_status": "needs_review"
  }
]