[
  {
    "candidate_id": "B0LDPAO3KO",
    "poi_name": "奥森星空驿站",
    "category": "生活服务;生活服务场所;生活服务场所",
    "amap_keywords": "咖啡|餐饮|便利店|书店|亲子|文创|茶饮",
    "longitude": "116.390751",
    "latitude": "40.012196",
    "rating": "",
    "cost_yuan": "",
    "distance_m": "726",
    "boundary_filter_status": "amap_around_current_context",
    "supply_use_status": "needs_review_context_poi",
    "output_status": "needs_review"
  },
  {
    "candidate_id": "B0KBNSI98Z",
    "poi_name": "以沫咖啡",
    "category": "餐饮服务;咖啡厅;咖啡厅",
    "amap_keywords": "咖啡|餐饮|便利店|书店|亲子|文创|茶饮",
    "longitude": "116.391469",
    "latitude": "40.011902",
    "rating": "",
    "cost_yuan": "",
    "distance_m": "751",
    "boundary_filter_status": "amap_around_current_context",
    "supply_use_status": "needs_review_context_poi",
    "output_status": "needs_review"
  },
  {
    "candidate_id": "B0H31HZMH0",
    "poi_name": "CafeFlatwhite亚投行店",
    "category": "餐饮服务;餐饮相关场所;餐饮相关",
    "amap_keywords": "咖啡|餐饮|便利店|书店|亲子|文创|茶饮",
    "longitude": "116.390325",
    "latitude": "40.008975",
    "rating": "",
    "cost_yuan": "",
    "distance_m": "1086",
    "boundary_filter_status": "amap_around_current_context",
    "supply_use_status": "needs_review_context_poi",
    "output_status": "needs_review"
  },
  {
    "candidate_id": "B0IGCHCVY5",
    "poi_name": "Tims天好咖啡(亚洲金融大厦店)",
    "category": "餐饮服务;咖啡厅;咖啡厅",
    "amap_keywords": "咖啡|餐饮|便利店|书店|亲子|文创|茶饮",
    "longitude": "116.389380",
    "latitude": "40.007420",
    "rating": "",
    "cost_yuan": "",
    "distance_m": "1270",
    "boundary_filter_status": "amap_around_current_context",
    "supply_use_status": "needs_review_context_poi",
    "output_status": "needs_review"
  },
  {
    "candidate_id": "B0LRMRYRJC",
    "poi_name": "MINI-CO小咖咖啡(北京清控人居大厦店)",
    "category": "餐饮服务;咖啡厅;咖啡厅",
    "amap_keywords": "咖啡|餐饮|便利店|书店|亲子|文创|茶饮",
    "longitude": "116.401016",
    "latitude": "40.008968",
    "rating": "",
    "cost_yuan": "",
    "distance_m": "1314",
    "boundary_filter_status": "amap_around_current_context",
    "supply_use_status": "needs_review_context_poi",
    "output_status": "needs_review"
  },
  {
    "candidate_id": "B0FFKNWUUQ",
    "poi_name": "星巴克(国奥中心店)",
    "category": "餐饮服务;咖啡厅;星巴克咖啡",
    "amap_keywords": "咖啡|餐饮|便利店|书店|亲子|文创|茶饮",
    "longitude": "116.381397",
    "latitude": "40.009255",
    "rating": "",
    "cost_yuan": "",
    "distance_m": "1390",
    "boundary_filter_status": "amap_around_current_context",
    "supply_use_status": "needs_review_context_poi",
    "output_status": "needs_review"
  },
  {
    "candidate_id": "B0M6PRN0BF",
    "poi_name": "即醒咖啡",
    "category": "餐饮服务;咖啡厅;咖啡厅",
    "amap_keywords": "咖啡|餐饮|便利店|书店|亲子|文创|茶饮",
    "longitude": "116.398325",
    "latitude": "40.004825",
    "rating": "",
    "cost_yuan": "",
    "distance_m": "1624",
    "boundary_filter_status": "amap_around_current_context",
    "supply_use_status": "needs_review_context_poi",
    "output_status": "needs_review"
  },
  {
    "candidate_id": "B0K1RRW2T9",
    "poi_name": "欢喜Curry咖喱餐厅(北辰荟店)",
    "category": "餐饮服务;中餐厅;中餐厅",
    "amap_keywords": "咖啡|餐饮|便利店|书店|亲子|文创|茶饮",
    "longitude": "116.387849",
    "latitude": "40.003699",
    "rating": "",
    "cost_yuan": "",
    "distance_m": "1702",
    "boundary_filter_status": "amap_around_current_context",
    "supply_use_status": "needs_review_context_poi",
    "output_status": "needs_review"
  },
  {
    "candidate_id": "B0KBR7RY7V",
    "poi_name": "瑞幸咖啡(北辰荟店)",
    "category": "餐饮服务;咖啡厅;咖啡厅",
    "amap_keywords": "咖啡|餐饮|便利店|书店|亲子|文创|茶饮",
    "longitude": "116.387782",
    "latitude": "40.003653",
    "rating": "",
    "cost_yuan": "",
    "distance_m": "1709",
    "boundary_filter_status": "amap_around_current_context",
    "supply_use_status": "needs_review_context_poi",
    "output_status": "needs_review"
  },
  {
    "candidate_id": "B0L0GD2Y8K",
    "poi_name": "雀咖啡QUE COFFEE",
    "category": "餐饮服务;咖啡厅;咖啡厅",
    "amap_keywords": "咖啡|餐饮|便利店|书店|亲子|文创|茶饮",
    "longitude": "116.387425",
    "latitude": "40.003125",
    "rating": "",
    "cost_yuan": "",
    "distance_m": "1773",
    "boundary_filter_status": "amap_around_current_context",
    "supply_use_status": "needs_review_context_poi",
    "output_status": "needs_review"
  },
  {
    "candidate_id": "B0LBSDRVO9",
    "poi_name": "北京汇泉轩餐饮娱乐有限公司",
    "category": "体育休闲服务;体育休闲服务场所;体育休闲服务场所",
    "amap_keywords": "咖啡|餐饮|便利店|书店|亲子|文创|茶饮",
    "longitude": "116.407397",
    "latitude": "40.007644",
    "rating": "",
    "cost_yuan": "",
    "distance_m": "1784",
    "boundary_filter_status": "amap_around_current_context",
    "supply_use_status": "needs_review_context_poi",
    "output_status": "needs_review"
  },
  {
    "candidate_id": "B0L1P561OA",
    "poi_name": "库迪咖啡(朝阳仰山公园店)",
    "category": "餐饮服务;咖啡厅;咖啡厅",
    "amap_keywords": "咖啡|餐饮|便利店|书店|亲子|文创|茶饮",
    "longitude": "116.413025",
    "latitude": "40.016525",
    "rating": "",
    "cost_yuan": "",
    "distance_m": "1794",
    "boundary_filter_status": "amap_around_current_context",
    "supply_use_status": "needs_review_context_poi",
    "output_status": "needs_review"
  },
  {
    "candidate_id": "B0LRMHXMDD",
    "poi_name": "瑞幸咖啡(大屯北路店)",
    "category": "餐饮服务;餐饮相关场所;餐饮相关",
    "amap_keywords": "咖啡|餐饮|便利店|书店|亲子|文创|茶饮",
    "longitude": "116.405769",
    "latitude": "40.005534",
    "rating": "",
    "cost_yuan": "",
    "distance_m": "1863",
    "boundary_filter_status": "amap_around_current_context",
    "supply_use_status": "needs_review_context_poi",
    "output_status": "needs_review"
  },
  {
    "candidate_id": "B0FFKTB1SE",
    "poi_name": "瑞幸咖啡(华创生活广场店)",
    "category": "餐饮服务;咖啡厅;咖啡厅",
    "amap_keywords": "咖啡|餐饮|便利店|书店|亲子|文创|茶饮",
    "longitude": "116.373075",
    "latitude": "40.010162",
    "rating": "",
    "cost_yuan": "",
    "distance_m": "1880",
    "boundary_filter_status": "amap_around_current_context",
    "supply_use_status": "needs_review_context_poi",
    "output_status": "needs_review"
  },
  {
    "candidate_id": "B0J0T7Y5LZ",
    "poi_name": "库迪咖啡(天虹商场新奥店)",
    "category": "餐饮服务;咖啡厅;咖啡厅",
    "amap_keywords": "咖啡|餐饮|便利店|书店|亲子|文创|茶饮",
    "longitude": "116.394578",
    "latitude": "40.001553",
    "rating": "",
    "cost_yuan": "",
    "distance_m": "1912",
    "boundary_filter_status": "amap_around_current_context",
    "supply_use_status": "needs_review_context_poi",
    "output_status": "needs_review"
  },
  {
    "candidate_id": "B0G03ZH84G",
    "poi_name": "CoCo都可(新奥工美店)",
    "category": "餐饮服务;冷饮店;冷饮店",
    "amap_keywords": "咖啡|餐饮|便利店|书店|亲子|文创|茶饮",
    "longitude": "116.393511",
    "latitude": "40.001469",
    "rating": "",
    "cost_yuan": "",
    "distance_m": "1914",
    "boundary_filter_status": "amap_around_current_context",
    "supply_use_status": "needs_review_context_poi",
    "output_status": "needs_review"
  },
  {
    "candidate_id": "B0FFJN7K27",
    "poi_name": "瑞幸咖啡(新奥天虹店)",
    "category": "餐饮服务;咖啡厅;咖啡厅",
    "amap_keywords": "咖啡|餐饮|便利店|书店|亲子|文创|茶饮",
    "longitude": "116.394591",
    "latitude": "40.001496",
    "rating": "",
    "cost_yuan": "",
    "distance_m": "1919",
    "boundary_filter_status": "amap_around_current_context",
    "supply_use_status": "needs_review_context_poi",
    "output_status": "needs_review"
  },
  {
    "candidate_id": "B0FFGDK7D2",
    "poi_name": "国家会议中心大酒店-咖啡厅",
    "category": "餐饮服务;咖啡厅;咖啡厅",
    "amap_keywords": "咖啡|餐饮|便利店|书店|亲子|文创|茶饮",
    "longitude": "116.388033",
    "latitude": "40.001609",
    "rating": "",
    "cost_yuan": "",
    "distance_m": "1927",
    "boundary_filter_status": "amap_around_current_context",
    "supply_use_status": "needs_review_context_poi",
    "output_status": "needs_review"
  },
  {
    "candidate_id": "B000A9DPF9",
    "poi_name": "中奥凯富国际酒店咖啡厅",
    "category": "餐饮服务;咖啡厅;咖啡厅",
    "amap_keywords": "咖啡|餐饮|便利店|书店|亲子|文创|茶饮",
    "longitude": "116.406725",
    "latitude": "40.005025",
    "rating": "",
    "cost_yuan": "",
    "distance_m": "1959",
    "boundary_filter_status": "amap_around_current_context",
    "supply_use_status": "needs_review_context_poi",
    "output_status": "needs_review"
  },
  {
    "candidate_id": "B0MBS7EIP0",
    "poi_name": "瑞幸咖啡(奥林匹克公园地铁站E口店)",
    "category": "餐饮服务;休闲餐饮场所;休闲餐饮场所",
    "amap_keywords": "咖啡|餐饮|便利店|书店|亲子|文创|茶饮",
    "longitude": "116.392391",
    "latitude": "40.000977",
    "rating": "",
    "cost_yuan": "",
    "distance_m": "1965",
    "boundary_filter_status": "amap_around_current_context",
    "supply_use_status": "needs_review_context_poi",
    "output_status": "needs_review"
  },
  {
    "candidate_id": "B0L176757S",
    "poi_name": "肯悦咖啡科荟路",
    "category": "餐饮服务;咖啡厅;咖啡厅",
    "amap_keywords": "咖啡|餐饮|便利店|书店|亲子|文创|茶饮",
    "longitude": "116.372032",
    "latitude": "40.009892",
    "rating": "",
    "cost_yuan": "",
    "distance_m": "1972",
    "boundary_filter_status": "amap_around_current_context",
    "supply_use_status": "needs_review_context_poi",
    "output_status": "needs_review"
  },
  {
    "candidate_id": "B0KA7LZ4N6",
    "poi_name": "luckin coffee 瑞幸咖啡(国泰大厦店)",
    "category": "餐饮服务;咖啡厅;咖啡厅",
    "amap_keywords": "咖啡|餐饮|便利店|书店|亲子|文创|茶饮",
    "longitude": "116.377313",
    "latitude": "40.032611",
    "rating": "",
    "cost_yuan": "",
    "distance_m": "2005",
    "boundary_filter_status": "amap_around_current_context",
    "supply_use_status": "needs_review_context_poi",
    "output_status": "needs_review"
  },
  {
    "candidate_id": "B000A8UOVR",
    "poi_name": "马哥孛罗咖啡厅(安立路)",
    "category": "餐饮服务;咖啡厅;咖啡厅",
    "amap_keywords": "咖啡|餐饮|便利店|书店|亲子|文创|茶饮",
    "longitude": "116.408756",
    "latitude": "40.005393",
    "rating": "",
    "cost_yuan": "",
    "distance_m": "2043",
    "boundary_filter_status": "amap_around_current_context",
    "supply_use_status": "needs_review_context_poi",
    "output_status": "needs_review"
  },
  {
    "candidate_id": "B0HKYGMPB0",
    "poi_name": "LAVAZZA拉瓦萨咖啡(北京林奥店)",
    "category": "餐饮服务;咖啡厅;咖啡厅",
    "amap_keywords": "咖啡|餐饮|便利店|书店|亲子|文创|茶饮",
    "longitude": "116.407320",
    "latitude": "40.033060",
    "rating": "",
    "cost_yuan": "",
    "distance_m": "2061",
    "boundary_filter_status": "amap_around_current_context",
    "supply_use_status": "needs_review_context_poi",
    "output_status": "needs_review"
  },
  {
    "candidate_id": "B0JRGHWSJR",
    "poi_name": "库迪咖啡(奥北科技园店)",
    "category": "餐饮服务;咖啡厅;咖啡厅",
    "amap_keywords": "咖啡|餐饮|便利店|书店|亲子|文创|茶饮",
    "longitude": "116.377065",
    "latitude": "40.033279",
    "rating": "",
    "cost_yuan": "",
    "distance_m": "2076",
    "boundary_filter_status": "amap_around_current_context",
    "supply_use_status": "needs_review_context_poi",
    "output_status": "needs_review"
  },
  {
    "candidate_id": "B0HGMX0VO8",
    "poi_name": "星巴克咖啡(北投新奥购物中心店)",
    "category": "餐饮服务;咖啡厅;星巴克咖啡",
    "amap_keywords": "咖啡|餐饮|便利店|书店|亲子|文创|茶饮",
    "longitude": "116.394158",
    "latitude": "39.999868",
    "rating": "",
    "cost_yuan": "",
    "distance_m": "2096",
    "boundary_filter_status": "amap_around_current_context",
    "supply_use_status": "needs_review_context_poi",
    "output_status": "needs_review"
  },
  {
    "candidate_id": "B000A842YL",
    "poi_name": "合利屋(北沙滩店)",
    "category": "餐饮服务;快餐厅;快餐厅",
    "amap_keywords": "咖啡|餐饮|便利店|书店|亲子|文创|茶饮",
    "longitude": "116.375383",
    "latitude": "40.004757",
    "rating": "",
    "cost_yuan": "",
    "distance_m": "2105",
    "boundary_filter_status": "amap_around_current_context",
    "supply_use_status": "needs_review_context_poi",
    "output_status": "needs_review"
  },
  {
    "candidate_id": "B0FFKHGYML",
    "poi_name": "瑞幸咖啡(第五大道日购商城店)",
    "category": "餐饮服务;餐饮相关场所;餐饮相关",
    "amap_keywords": "咖啡|餐饮|便利店|书店|亲子|文创|茶饮",
    "longitude": "116.406676",
    "latitude": "40.003243",
    "rating": "",
    "cost_yuan": "",
    "distance_m": "2113",
    "boundary_filter_status": "amap_around_current_context",
    "supply_use_status": "needs_review_context_poi",
    "output_status": "needs_review"
  }
]