[
  {
    "candidate_id": "B0HGSC50AX",
    "poi_name": "院里花园·咖啡简餐",
    "category": "餐饮服务;餐饮相关场所;餐饮相关",
    "amap_keywords": "咖啡|餐饮|便利店|书店|亲子|文创|茶饮",
    "longitude": "116.407255",
    "latitude": "39.955337",
    "rating": "",
    "cost_yuan": "",
    "distance_m": "369",
    "boundary_filter_status": "amap_around_current_context",
    "supply_use_status": "needs_review_context_poi",
    "output_status": "needs_review"
  },
  {
    "candidate_id": "B0LKTLX7Z4",
    "poi_name": "MINI-CO小咖咖啡(北京安定门店)",
    "category": "餐饮服务;咖啡厅;咖啡厅",
    "amap_keywords": "咖啡|餐饮|便利店|书店|亲子|文创|茶饮",
    "longitude": "116.406210",
    "latitude": "39.951357",
    "rating": "",
    "cost_yuan": "",
    "distance_m": "416",
    "boundary_filter_status": "amap_around_current_context",
    "supply_use_status": "needs_review_context_poi",
    "output_status": "needs_review"
  },
  {
    "candidate_id": "B0J0R4BKHI",
    "poi_name": "瑞幸咖啡(首开广场安定门店)",
    "category": "餐饮服务;咖啡厅;咖啡厅",
    "amap_keywords": "咖啡|餐饮|便利店|书店|亲子|文创|茶饮",
    "longitude": "116.407524",
    "latitude": "39.951849",
    "rating": "",
    "cost_yuan": "",
    "distance_m": "460",
    "boundary_filter_status": "amap_around_current_context",
    "supply_use_status": "needs_review_context_poi",
    "output_status": "needs_review"
  },
  {
    "candidate_id": "B0FFJON0TB",
    "poi_name": "星巴克(中邮保险玖安广场店)",
    "category": "餐饮服务;咖啡厅;星巴克咖啡",
    "amap_keywords": "咖啡|餐饮|便利店|书店|亲子|文创|茶饮",
    "longitude": "116.408712",
    "latitude": "39.952047",
    "rating": "",
    "cost_yuan": "",
    "distance_m": "535",
    "boundary_filter_status": "amap_around_current_context",
    "supply_use_status": "needs_review_context_poi",
    "output_status": "needs_review"
  },
  {
    "candidate_id": "B0K1U59J65",
    "poi_name": "喏町咖啡NODDINCOFFEE(柳荫公园店)",
    "category": "餐饮服务;咖啡厅;咖啡厅",
    "amap_keywords": "咖啡|餐饮|便利店|书店|亲子|文创|茶饮",
    "longitude": "116.403486",
    "latitude": "39.960140",
    "rating": "",
    "cost_yuan": "",
    "distance_m": "653",
    "boundary_filter_status": "amap_around_current_context",
    "supply_use_status": "needs_review_context_poi",
    "output_status": "needs_review"
  },
  {
    "candidate_id": "B0LUUCLJF8",
    "poi_name": "知香谣餐饮店",
    "category": "餐饮服务;餐饮相关场所;餐饮相关",
    "amap_keywords": "咖啡|餐饮|便利店|书店|亲子|文创|茶饮",
    "longitude": "116.404588",
    "latitude": "39.948426",
    "rating": "",
    "cost_yuan": "",
    "distance_m": "662",
    "boundary_filter_status": "amap_around_current_context",
    "supply_use_status": "needs_review_context_poi",
    "output_status": "needs_review"
  },
  {
    "candidate_id": "B0I174NBO2",
    "poi_name": "褡裢火烧(北锣鼓巷店)",
    "category": "餐饮服务;中餐厅;中餐厅",
    "amap_keywords": "咖啡|餐饮|便利店|书店|亲子|文创|茶饮",
    "longitude": "116.402945",
    "latitude": "39.947455",
    "rating": "",
    "cost_yuan": "",
    "distance_m": "758",
    "boundary_filter_status": "amap_around_current_context",
    "supply_use_status": "needs_review_context_poi",
    "output_status": "needs_review"
  },
  {
    "candidate_id": "B0K1P5CCR6",
    "poi_name": "彼時咖啡",
    "category": "餐饮服务;餐饮相关场所;餐饮相关",
    "amap_keywords": "咖啡|餐饮|便利店|书店|亲子|文创|茶饮",
    "longitude": "116.399563",
    "latitude": "39.947764",
    "rating": "",
    "cost_yuan": "",
    "distance_m": "786",
    "boundary_filter_status": "amap_around_current_context",
    "supply_use_status": "needs_review_context_poi",
    "output_status": "needs_review"
  },
  {
    "candidate_id": "B0JDCH0XSW",
    "poi_name": "Tims天好咖啡(中国石化富友加油站店)",
    "category": "餐饮服务;餐饮相关场所;餐饮相关",
    "amap_keywords": "咖啡|餐饮|便利店|书店|亲子|文创|茶饮",
    "longitude": "116.405680",
    "latitude": "39.961327",
    "rating": "",
    "cost_yuan": "",
    "distance_m": "814",
    "boundary_filter_status": "amap_around_current_context",
    "supply_use_status": "needs_review_context_poi",
    "output_status": "needs_review"
  },
  {
    "candidate_id": "B0KG7UY9FX",
    "poi_name": "候鸟咖啡(郎家胡同店)",
    "category": "餐饮服务;咖啡厅;咖啡厅",
    "amap_keywords": "咖啡|餐饮|便利店|书店|亲子|文创|茶饮",
    "longitude": "116.402573",
    "latitude": "39.946912",
    "rating": "",
    "cost_yuan": "",
    "distance_m": "820",
    "boundary_filter_status": "amap_around_current_context",
    "supply_use_status": "needs_review_context_poi",
    "output_status": "needs_review"
  },
  {
    "candidate_id": "B0K1LZE5J1",
    "poi_name": "嘉和一品(外馆斜街店)",
    "category": "餐饮服务;中餐厅;中餐厅",
    "amap_keywords": "咖啡|餐饮|便利店|书店|亲子|文创|茶饮",
    "longitude": "116.405322",
    "latitude": "39.962289",
    "rating": "",
    "cost_yuan": "",
    "distance_m": "911",
    "boundary_filter_status": "amap_around_current_context",
    "supply_use_status": "needs_review_context_poi",
    "output_status": "needs_review"
  },
  {
    "candidate_id": "B0LGT9ZRPF",
    "poi_name": "土耳其咖啡",
    "category": "餐饮服务;咖啡厅;咖啡厅",
    "amap_keywords": "咖啡|餐饮|便利店|书店|亲子|文创|茶饮",
    "longitude": "116.410925",
    "latitude": "39.948575",
    "rating": "",
    "cost_yuan": "",
    "distance_m": "917",
    "boundary_filter_status": "amap_around_current_context",
    "supply_use_status": "needs_review_context_poi",
    "output_status": "needs_review"
  },
  {
    "candidate_id": "B0LGS76Q3U",
    "poi_name": "哆咪咖啡Do Mi Coffee",
    "category": "餐饮服务;咖啡厅;咖啡厅",
    "amap_keywords": "咖啡|餐饮|便利店|书店|亲子|文创|茶饮",
    "longitude": "116.411021",
    "latitude": "39.948509",
    "rating": "",
    "cost_yuan": "",
    "distance_m": "928",
    "boundary_filter_status": "amap_around_current_context",
    "supply_use_status": "needs_review_context_poi",
    "output_status": "needs_review"
  },
  {
    "candidate_id": "B0FFLFWXYF",
    "poi_name": "涮火捞石锅鱼(安定门店)",
    "category": "餐饮服务;中餐厅;火锅店",
    "amap_keywords": "咖啡|餐饮|便利店|书店|亲子|文创|茶饮",
    "longitude": "116.408084",
    "latitude": "39.946603",
    "rating": "",
    "cost_yuan": "",
    "distance_m": "951",
    "boundary_filter_status": "amap_around_current_context",
    "supply_use_status": "needs_review_context_poi",
    "output_status": "needs_review"
  },
  {
    "candidate_id": "B0J277F40I",
    "poi_name": "三忘湖咖啡馆面馆",
    "category": "餐饮服务;咖啡厅;咖啡厅",
    "amap_keywords": "咖啡|餐饮|便利店|书店|亲子|文创|茶饮",
    "longitude": "116.396729",
    "latitude": "39.946997",
    "rating": "",
    "cost_yuan": "",
    "distance_m": "977",
    "boundary_filter_status": "amap_around_current_context",
    "supply_use_status": "needs_review_context_poi",
    "output_status": "needs_review"
  },
  {
    "candidate_id": "B0K0KHCA31",
    "poi_name": "蛋咖啡Egg Coffee(五道营胡同店)",
    "category": "餐饮服务;咖啡厅;咖啡厅",
    "amap_keywords": "咖啡|餐饮|便利店|书店|亲子|文创|茶饮",
    "longitude": "116.412055",
    "latitude": "39.948358",
    "rating": "",
    "cost_yuan": "",
    "distance_m": "1005",
    "boundary_filter_status": "amap_around_current_context",
    "supply_use_status": "needs_review_context_poi",
    "output_status": "needs_review"
  },
  {
    "candidate_id": "B0M6FCZJFT",
    "poi_name": "槐树下SweetShade甜品咖啡",
    "category": "餐饮服务;咖啡厅;咖啡厅",
    "amap_keywords": "咖啡|餐饮|便利店|书店|亲子|文创|茶饮",
    "longitude": "116.400247",
    "latitude": "39.945475",
    "rating": "",
    "cost_yuan": "",
    "distance_m": "1010",
    "boundary_filter_status": "amap_around_current_context",
    "supply_use_status": "needs_review_context_poi",
    "output_status": "needs_review"
  },
  {
    "candidate_id": "B0L3DC5HPE",
    "poi_name": "瑞幸咖啡(安定门内大街店)",
    "category": "餐饮服务;休闲餐饮场所;休闲餐饮场所",
    "amap_keywords": "咖啡|餐饮|便利店|书店|亲子|文创|茶饮",
    "longitude": "116.408552",
    "latitude": "39.945676",
    "rating": "",
    "cost_yuan": "",
    "distance_m": "1062",
    "boundary_filter_status": "amap_around_current_context",
    "supply_use_status": "needs_review_context_poi",
    "output_status": "needs_review"
  },
  {
    "candidate_id": "B0L0UZVIWN",
    "poi_name": "NOWWA挪瓦咖啡(好邻居兴化西里和平里医院店)",
    "category": "餐饮服务;咖啡厅;咖啡厅",
    "amap_keywords": "咖啡|餐饮|便利店|书店|亲子|文创|茶饮",
    "longitude": "116.414038",
    "latitude": "39.959628",
    "rating": "",
    "cost_yuan": "",
    "distance_m": "1103",
    "boundary_filter_status": "amap_around_current_context",
    "supply_use_status": "needs_review_context_poi",
    "output_status": "needs_review"
  },
  {
    "candidate_id": "B0JAFHN66F",
    "poi_name": "TOWN HOUSE 北欧咖啡(国子监店)",
    "category": "餐饮服务;咖啡厅;咖啡厅",
    "amap_keywords": "咖啡|餐饮|便利店|书店|亲子|文创|茶饮",
    "longitude": "116.409654",
    "latitude": "39.945367",
    "rating": "",
    "cost_yuan": "",
    "distance_m": "1135",
    "boundary_filter_status": "amap_around_current_context",
    "supply_use_status": "needs_review_context_poi",
    "output_status": "needs_review"
  },
  {
    "candidate_id": "B000A84JY9",
    "poi_name": "如果·光线咖啡(北锣鼓巷店)",
    "category": "餐饮服务;咖啡厅;咖啡厅|购物服务;购物相关场所;购物相关场所",
    "amap_keywords": "咖啡|餐饮|便利店|书店|亲子|文创|茶饮",
    "longitude": "116.402862",
    "latitude": "39.943842",
    "rating": "",
    "cost_yuan": "",
    "distance_m": "1161",
    "boundary_filter_status": "amap_around_current_context",
    "supply_use_status": "needs_review_context_poi",
    "output_status": "needs_review"
  },
  {
    "candidate_id": "B0K2JH5OLB",
    "poi_name": "福顶咖啡(雍和宫店)",
    "category": "餐饮服务;咖啡厅;咖啡厅",
    "amap_keywords": "咖啡|餐饮|便利店|书店|亲子|文创|茶饮",
    "longitude": "116.414555",
    "latitude": "39.948370",
    "rating": "",
    "cost_yuan": "",
    "distance_m": "1174",
    "boundary_filter_status": "amap_around_current_context",
    "supply_use_status": "needs_review_context_poi",
    "output_status": "needs_review"
  },
  {
    "candidate_id": "B0K04HTXQ0",
    "poi_name": "撞咖·咖啡(黄寺大街店)",
    "category": "餐饮服务;咖啡厅;咖啡厅",
    "amap_keywords": "咖啡|餐饮|便利店|书店|亲子|文创|茶饮",
    "longitude": "116.395367",
    "latitude": "39.963321",
    "rating": "",
    "cost_yuan": "",
    "distance_m": "1206",
    "boundary_filter_status": "amap_around_current_context",
    "supply_use_status": "needs_review_context_poi",
    "output_status": "needs_review"
  },
  {
    "candidate_id": "B0I247OTRE",
    "poi_name": "铁手咖啡制造局(五道营店)",
    "category": "餐饮服务;咖啡厅;咖啡厅",
    "amap_keywords": "咖啡|餐饮|便利店|书店|亲子|文创|茶饮",
    "longitude": "116.414996",
    "latitude": "39.948326",
    "rating": "",
    "cost_yuan": "",
    "distance_m": "1208",
    "boundary_filter_status": "amap_around_current_context",
    "supply_use_status": "needs_review_context_poi",
    "output_status": "needs_review"
  },
  {
    "candidate_id": "B000A1050D",
    "poi_name": "秀冠咖啡",
    "category": "餐饮服务;咖啡厅;咖啡厅",
    "amap_keywords": "咖啡|餐饮|便利店|书店|亲子|文创|茶饮",
    "longitude": "116.411573",
    "latitude": "39.945546",
    "rating": "",
    "cost_yuan": "",
    "distance_m": "1208",
    "boundary_filter_status": "amap_around_current_context",
    "supply_use_status": "needs_review_context_poi",
    "output_status": "needs_review"
  },
  {
    "candidate_id": "B0LUK7URQU",
    "poi_name": "luckin coffee 瑞幸咖啡(旧鼓楼大街店)",
    "category": "餐饮服务;咖啡厅;咖啡厅",
    "amap_keywords": "咖啡|餐饮|便利店|书店|亲子|文创|茶饮",
    "longitude": "116.394025",
    "latitude": "39.945875",
    "rating": "",
    "cost_yuan": "",
    "distance_m": "1216",
    "boundary_filter_status": "amap_around_current_context",
    "supply_use_status": "needs_review_context_poi",
    "output_status": "needs_review"
  },
  {
    "candidate_id": "B0FFIYU7DT",
    "poi_name": "瑞幸咖啡(江苏广电大厦店)",
    "category": "餐饮服务;咖啡厅;咖啡厅",
    "amap_keywords": "咖啡|餐饮|便利店|书店|亲子|文创|茶饮",
    "longitude": "116.406982",
    "latitude": "39.964823",
    "rating": "",
    "cost_yuan": "",
    "distance_m": "1219",
    "boundary_filter_status": "amap_around_current_context",
    "supply_use_status": "needs_review_context_poi",
    "output_status": "needs_review"
  },
  {
    "candidate_id": "B0K2VHBT2L",
    "poi_name": "古耳咖啡",
    "category": "餐饮服务;餐饮相关场所;餐饮相关",
    "amap_keywords": "咖啡|餐饮|便利店|书店|亲子|文创|茶饮",
    "longitude": "116.403012",
    "latitude": "39.943282",
    "rating": "",
    "cost_yuan": "",
    "distance_m": "1223",
    "boundary_filter_status": "amap_around_current_context",
    "supply_use_status": "needs_review_context_poi",
    "output_status": "needs_review"
  },
  {
    "candidate_id": "B0MBSCEID1",
    "poi_name": "握佛咖啡",
    "category": "餐饮服务;咖啡厅;咖啡厅",
    "amap_keywords": "咖啡|餐饮|便利店|书店|亲子|文创|茶饮",
    "longitude": "116.415390",
    "latitude": "39.948353",
    "rating": "",
    "cost_yuan": "",
    "distance_m": "1234",
    "boundary_filter_status": "amap_around_current_context",
    "supply_use_status": "needs_review_context_poi",
    "output_status": "needs_review"
  },
  {
    "candidate_id": "B0MB5BJSTR",
    "poi_name": "北京坤金餐饮有限公司",
    "category": "餐饮服务;餐饮相关场所;餐饮相关",
    "amap_keywords": "咖啡|餐饮|便利店|书店|亲子|文创|茶饮",
    "longitude": "116.393755",
    "latitude": "39.945811",
    "rating": "",
    "cost_yuan": "",
    "distance_m": "1237",
    "boundary_filter_status": "amap_around_current_context",
    "supply_use_status": "needs_review_context_poi",
    "output_status": "needs_review"
  },
  {
    "candidate_id": "B0KRCP5G4F",
    "poi_name": "好hǎoLab咖啡·面包",
    "category": "餐饮服务;餐饮相关场所;餐饮相关",
    "amap_keywords": "咖啡|餐饮|便利店|书店|亲子|文创|茶饮",
    "longitude": "116.408629",
    "latitude": "39.943935",
    "rating": "",
    "cost_yuan": "",
    "distance_m": "1241",
    "boundary_filter_status": "amap_around_current_context",
    "supply_use_status": "needs_review_context_poi",
    "output_status": "needs_review"
  },
  {
    "candidate_id": "B0G1GSNGNC",
    "poi_name": "WAKE UP&COFFEE醒山咖啡(北锣鼓巷店)",
    "category": "餐饮服务;咖啡厅;咖啡厅",
    "amap_keywords": "咖啡|餐饮|便利店|书店|亲子|文创|茶饮",
    "longitude": "116.402825",
    "latitude": "39.942875",
    "rating": "",
    "cost_yuan": "",
    "distance_m": "1268",
    "boundary_filter_status": "amap_around_current_context",
    "supply_use_status": "needs_review_context_poi",
    "output_status": "needs_review"
  },
  {
    "candidate_id": "B0J315DE19",
    "poi_name": "天福号(和平里店)",
    "category": "餐饮服务;餐饮相关场所;餐饮相关",
    "amap_keywords": "咖啡|餐饮|便利店|书店|亲子|文创|茶饮",
    "longitude": "116.414198",
    "latitude": "39.962114",
    "rating": "",
    "cost_yuan": "",
    "distance_m": "1284",
    "boundary_filter_status": "amap_around_current_context",
    "supply_use_status": "needs_review_context_poi",
    "output_status": "needs_review"
  },
  {
    "candidate_id": "B0MB240INI",
    "poi_name": "北京稻香阁餐饮有限公司",
    "category": "餐饮服务;中餐厅;中餐厅",
    "amap_keywords": "咖啡|餐饮|便利店|书店|亲子|文创|茶饮",
    "longitude": "116.414863",
    "latitude": "39.961562",
    "rating": "",
    "cost_yuan": "",
    "distance_m": "1287",
    "boundary_filter_status": "amap_around_current_context",
    "supply_use_status": "needs_review_context_poi",
    "output_status": "needs_review"
  },
  {
    "candidate_id": "B0M6LH6FQ3",
    "poi_name": "娘娘殿咖啡",
    "category": "餐饮服务;餐饮相关场所;餐饮相关",
    "amap_keywords": "咖啡|餐饮|便利店|书店|亲子|文创|茶饮",
    "longitude": "116.396025",
    "latitude": "39.944075",
    "rating": "",
    "cost_yuan": "",
    "distance_m": "1287",
    "boundary_filter_status": "amap_around_current_context",
    "supply_use_status": "needs_review_context_poi",
    "output_status": "needs_review"
  },
  {
    "candidate_id": "B0LR5HAG44",
    "poi_name": "咖小天咖啡吧",
    "category": "餐饮服务;餐饮相关场所;餐饮相关",
    "amap_keywords": "咖啡|餐饮|便利店|书店|亲子|文创|茶饮",
    "longitude": "116.409579",
    "latitude": "39.965184",
    "rating": "",
    "cost_yuan": "",
    "distance_m": "1332",
    "boundary_filter_status": "amap_around_current_context",
    "supply_use_status": "needs_review_context_poi",
    "output_status": "needs_review"
  },
  {
    "candidate_id": "B0J0Y7Q71K",
    "poi_name": "库迪咖啡(雍和宫壹中心B1店)",
    "category": "餐饮服务;餐饮相关场所;餐饮相关",
    "amap_keywords": "咖啡|餐饮|便利店|书店|亲子|文创|茶饮",
    "longitude": "116.419379",
    "latitude": "39.952110",
    "rating": "",
    "cost_yuan": "",
    "distance_m": "1405",
    "boundary_filter_status": "amap_around_current_context",
    "supply_use_status": "needs_review_context_poi",
    "output_status": "needs_review"
  },
  {
    "candidate_id": "B0FFKSKXP6",
    "poi_name": "好客咖啡(安华里2区1号楼店)",
    "category": "餐饮服务;咖啡厅;咖啡厅",
    "amap_keywords": "咖啡|餐饮|便利店|书店|亲子|文创|茶饮",
    "longitude": "116.402566",
    "latitude": "39.966906",
    "rating": "",
    "cost_yuan": "",
    "distance_m": "1407",
    "boundary_filter_status": "amap_around_current_context",
    "supply_use_status": "needs_review_context_poi",
    "output_status": "needs_review"
  },
  {
    "candidate_id": "B0FFKSHKQK",
    "poi_name": "瑞幸咖啡(雍和宫壹中心店)",
    "category": "餐饮服务;餐饮相关场所;餐饮相关",
    "amap_keywords": "咖啡|餐饮|便利店|书店|亲子|文创|茶饮",
    "longitude": "116.419653",
    "latitude": "39.953199",
    "rating": "",
    "cost_yuan": "",
    "distance_m": "1413",
    "boundary_filter_status": "amap_around_current_context",
    "supply_use_status": "needs_review_context_poi",
    "output_status": "needs_review"
  },
  {
    "candidate_id": "B0MBFS4CGW",
    "poi_name": "北京瑞吉咖啡有限公司(和平里东街店)",
    "category": "餐饮服务;咖啡厅;咖啡厅",
    "amap_keywords": "咖啡|餐饮|便利店|书店|亲子|文创|茶饮",
    "longitude": "116.419725",
    "latitude": "39.953175",
    "rating": "",
    "cost_yuan": "",
    "distance_m": "1419",
    "boundary_filter_status": "amap_around_current_context",
    "supply_use_status": "needs_review_context_poi",
    "output_status": "needs_review"
  },
  {
    "candidate_id": "B0FFH612V9",
    "poi_name": "小时光咖啡馆",
    "category": "餐饮服务;咖啡厅;咖啡厅",
    "amap_keywords": "咖啡|餐饮|便利店|书店|亲子|文创|茶饮",
    "longitude": "116.403106",
    "latitude": "39.941390",
    "rating": "",
    "cost_yuan": "",
    "distance_m": "1433",
    "boundary_filter_status": "amap_around_current_context",
    "supply_use_status": "needs_review_context_poi",
    "output_status": "needs_review"
  },
  {
    "candidate_id": "B0I21UM2HZ",
    "poi_name": "Peet's皮爷咖啡(环贸中心店)",
    "category": "餐饮服务;咖啡厅;咖啡厅",
    "amap_keywords": "咖啡|餐饮|便利店|书店|亲子|文创|茶饮",
    "longitude": "116.410682",
    "latitude": "39.966144",
    "rating": "",
    "cost_yuan": "",
    "distance_m": "1469",
    "boundary_filter_status": "amap_around_current_context",
    "supply_use_status": "needs_review_context_poi",
    "output_status": "needs_review"
  },
  {
    "candidate_id": "B0KK2A640G",
    "poi_name": "库迪咖啡(鼓楼东大街店)",
    "category": "餐饮服务;咖啡厅;咖啡厅",
    "amap_keywords": "咖啡|餐饮|便利店|书店|亲子|文创|茶饮",
    "longitude": "116.402399",
    "latitude": "39.940944",
    "rating": "",
    "cost_yuan": "",
    "distance_m": "1485",
    "boundary_filter_status": "amap_around_current_context",
    "supply_use_status": "needs_review_context_poi",
    "output_status": "needs_review"
  },
  {
    "candidate_id": "B0M6CMU2ZM",
    "poi_name": "铁板鱿鱼·烤串风味1北京站台餐饮管理有限公司",
    "category": "餐饮服务;中餐厅;中餐厅|公司企业;公司;公司",
    "amap_keywords": "咖啡|餐饮|便利店|书店|亲子|文创|茶饮",
    "longitude": "116.405475",
    "latitude": "39.940975",
    "rating": "",
    "cost_yuan": "",
    "distance_m": "1493",
    "boundary_filter_status": "amap_around_current_context",
    "supply_use_status": "needs_review_context_poi",
    "output_status": "needs_review"
  },
  {
    "candidate_id": "B0LKZ9GQKZ",
    "poi_name": "小翁咖啡屋",
    "category": "餐饮服务;咖啡厅;咖啡厅",
    "amap_keywords": "咖啡|餐饮|便利店|书店|亲子|文创|茶饮",
    "longitude": "116.403325",
    "latitude": "39.940725",
    "rating": "",
    "cost_yuan": "",
    "distance_m": "1508",
    "boundary_filter_status": "amap_around_current_context",
    "supply_use_status": "needs_review_context_poi",
    "output_status": "needs_review"
  },
  {
    "candidate_id": "B0FFH56NVJ",
    "poi_name": "海岸咖啡(宝钞胡同店)",
    "category": "餐饮服务;餐饮相关场所;餐饮相关",
    "amap_keywords": "咖啡|餐饮|便利店|书店|亲子|文创|茶饮",
    "longitude": "116.399592",
    "latitude": "39.940922",
    "rating": "",
    "cost_yuan": "",
    "distance_m": "1516",
    "boundary_filter_status": "amap_around_current_context",
    "supply_use_status": "needs_review_context_poi",
    "output_status": "needs_review"
  },
  {
    "candidate_id": "B0FFHOEPRL",
    "poi_name": "马灯电影馆(暂停营业)",
    "category": "体育休闲服务;影剧院;电影院",
    "amap_keywords": "咖啡|餐饮|便利店|书店|亲子|文创|茶饮",
    "longitude": "116.405283",
    "latitude": "39.946401",
    "rating": "",
    "cost_yuan": "",
    "distance_m": "894",
    "boundary_filter_status": "amap_around_current_context",
    "supply_use_status": "needs_review_context_poi",
    "output_status": "needs_review"
  }
]